,City,Country,Date,Lat,Lng,Max Temp,Humidity,Cloudiness,Wind Speed,Current Description,Rain inches (last 3 hrs),Snowfall inches (last 3 hrs)
0,Qaanaaq,GL,2019-11-08 06:32:38,77.48,-69.36,-3.28,65,0,6.85,clear sky,0.0,0.0
1,Bambous Virieux,MU,2019-11-08 06:32:38,-20.34,57.76,78.8,69,75,14.99,broken clouds,0.0,0.0
2,Tiksi,RU,2019-11-08 06:32:38,71.64,128.87,-3.84,96,97,5.97,overcast clouds,0.0,0.0
3,Dingle,PH,2019-11-08 06:32:38,11.0,122.67,83.71,75,7,15.61,light rain,0.38,0.0
4,Rikitea,PF,2019-11-08 06:32:39,-23.12,-134.97,74.55,82,81,9.91,broken clouds,0.0,0.0
5,Puerto Ayora,EC,2019-11-08 06:37:00,-0.74,-90.35,68.95,90,86,5.93,overcast clouds,0.0,0.0
6,Lawton,US,2019-11-08 06:35:08,34.61,-98.39,39.2,64,90,9.17,overcast clouds,0.0,0.0
7,Tura,RU,2019-11-08 06:37:00,64.27,100.22,10.45,93,100,6.93,light snow,0.0,1.13
8,Coahuayana,MX,2019-11-08 06:37:00,18.62,-100.35,71.28,84,32,1.9,scattered clouds,0.0,0.0
9,Kapaa,US,2019-11-08 06:37:01,22.08,-159.32,73.4,73,1,4.7,clear sky,0.0,0.0
10,Hermanus,ZA,2019-11-08 06:37:01,-34.42,19.24,60.87,77,7,14.32,clear sky,0.0,0.0
11,Jamestown,AU,2019-11-08 06:37:01,-33.21,138.6,58.87,40,29,20.96,scattered clouds,0.0,0.0
12,Mar Del Plata,AR,2019-11-08 06:37:01,-46.43,-67.52,49.32,36,0,18.23,clear sky,0.0,0.0
13,Bluff,AU,2019-11-08 06:37:01,-23.58,149.07,98.49,7,0,15.32,clear sky,0.0,0.0
14,Navolato,MX,2019-11-08 06:37:02,24.76,-107.7,74.48,74,99,2.35,overcast clouds,0.0,0.0
15,Hasaki,JP,2019-11-08 06:37:02,35.73,140.83,60.8,55,20,10.29,few clouds,0.0,0.0
16,Busselton,AU,2019-11-08 06:37:02,-33.64,115.35,74.41,47,0,2.68,clear sky,0.0,0.0
17,La Rioja,AR,2019-11-08 06:35:15,-29.41,-66.86,65.64,56,0,4.59,clear sky,0.0,0.0
18,Bereda,ES,2019-11-08 06:37:03,43.27,-7.54,48.2,93,40,11.41,scattered clouds,0.0,0.0
19,Anadyr,RU,2019-11-08 06:37:03,64.73,177.51,10.4,85,0,6.71,clear sky,0.0,0.0
20,Georgetown,GY,2019-11-08 06:33:33,6.8,-58.16,75.2,100,20,4.7,few clouds,0.0,0.0
21,Ushuaia,AR,2019-11-08 06:37:03,-54.81,-68.31,35.6,98,40,21.92,scattered clouds,0.0,0.0
22,Khani,GE,2019-11-08 06:37:04,41.96,42.96,66.2,37,0,16.11,clear sky,0.0,0.0
23,Pevek,RU,2019-11-08 06:37:04,69.7,170.27,22.35,59,83,14.7,broken clouds,0.0,0.0
24,Hithadhoo,MV,2019-11-08 06:37:04,-0.6,73.08,82.47,68,0,6.2,clear sky,0.0,0.0
25,Richards Bay,ZA,2019-11-08 06:37:04,-28.77,32.06,69.03,78,100,14.92,light rain,1.19,0.0
26,Kavieng,PG,2019-11-08 06:37:04,-2.57,150.8,84.52,72,96,12.33,light rain,0.44,0.0
27,Albany,US,2019-11-08 06:34:22,42.65,-73.75,30.2,63,20,9.17,few clouds,0.0,0.0
28,Hobart,AU,2019-11-08 06:37:05,-42.88,147.33,48.2,66,75,12.75,light intensity shower rain,0.0,0.0
29,Pontes E Lacerda,BR,2019-11-08 06:37:05,-15.23,-59.33,72.09,97,100,1.1,light rain,0.38,0.0
30,Khatanga,RU,2019-11-08 06:37:05,71.98,102.47,-8.94,93,42,12.5,scattered clouds,0.0,0.0
31,Sur,OM,2019-11-08 06:37:05,22.57,59.53,80.78,41,33,4.52,scattered clouds,0.0,0.0
32,Taltal,CL,2019-11-08 06:37:05,-25.41,-70.49,51.37,91,50,3.62,scattered clouds,0.0,0.0
33,Kaitangata,NZ,2019-11-08 06:37:06,-46.28,169.85,56.14,75,79,6.06,broken clouds,0.0,0.0
34,Mahebourg,MU,2019-11-08 06:37:06,-20.41,57.7,78.8,69,75,14.99,broken clouds,0.0,0.0
35,Ancud,CL,2019-11-08 06:37:06,-41.87,-73.83,42.1,82,100,2.28,overcast clouds,0.0,0.0
36,Bima,ID,2019-11-08 06:37:06,-8.45,118.73,89.28,51,67,2.71,light rain,1.31,0.0
37,Faanui,PF,2019-11-08 06:37:06,-16.48,-151.75,80.94,81,17,20.2,few clouds,0.0,0.0
38,Tasiilaq,GL,2019-11-08 06:37:07,65.61,-37.64,35.6,59,100,38.03,light snow,0.0,1.37
39,Vaini,IN,2019-11-08 06:37:07,15.34,74.49,80.6,61,40,5.82,scattered clouds,0.0,0.0
40,Nome,US,2019-11-08 06:37:07,30.04,-94.42,60.8,100,90,12.75,overcast clouds,0.0,0.0
41,Atuona,PF,2019-11-08 06:37:07,-9.8,-139.03,80.58,78,0,14.56,light rain,0.44,0.0
42,Gamba,CN,2019-11-08 06:37:08,28.28,88.52,34.16,36,73,3.71,broken clouds,0.0,0.0
43,Berlevag,NO,2019-11-08 06:37:08,70.86,29.09,23.0,92,40,12.75,scattered clouds,0.0,0.0
44,Ostrovnoy,RU,2019-11-08 06:37:08,68.05,39.51,16.97,90,100,6.98,overcast clouds,0.0,0.0
45,Nata,BW,2019-11-08 06:37:08,-20.21,26.19,86.31,23,4,13.09,clear sky,0.0,0.0
46,Yellowknife,CA,2019-11-08 06:36:48,62.45,-114.38,10.4,85,75,6.93,light snow,0.0,0.0
47,Crotone,IT,2019-11-08 06:37:09,39.09,17.12,56.93,65,0,6.58,clear sky,0.0,0.0
48,Constitucion,MX,2019-11-08 06:37:09,23.99,-104.67,61.56,71,80,3.47,broken clouds,0.0,0.0
49,Ayan,IR,2019-11-08 06:37:09,38.23,44.7,46.24,24,0,0.6,clear sky,0.0,0.0
50,Fortuna,US,2019-11-08 06:37:09,40.6,-124.16,48.2,93,90,3.06,overcast clouds,0.0,0.0
51,Poum,MK,2019-11-08 06:37:09,41.28,20.71,46.4,93,40,2.24,scattered clouds,0.0,0.0
52,Roald,NO,2019-11-08 06:37:10,62.58,6.12,28.4,86,20,10.29,few clouds,0.0,0.0
53,Thompson,CA,2019-11-08 06:37:10,55.74,-97.86,10.4,78,90,2.24,light snow,0.0,0.0
54,Katobu,ID,2019-11-08 06:37:10,-4.94,122.53,87.91,53,60,3.91,broken clouds,0.0,0.0
55,Hajos,HU,2019-11-08 06:37:10,46.4,19.12,47.61,93,13,7.72,few clouds,0.0,0.0
56,Kieta,PG,2019-11-08 06:37:11,-6.22,155.63,83.89,71,36,2.04,light rain,0.56,0.0
57,Manzanillo,MX,2019-11-08 06:37:11,19.05,-104.32,82.15,80,50,1.68,scattered clouds,0.0,0.0
58,Lincoln,GB,2019-11-08 06:37:11,53.23,-0.54,46.4,81,20,13.87,few clouds,0.0,0.0
59,Sorland,NO,2019-11-08 06:37:11,67.67,12.69,19.4,92,20,5.82,few clouds,0.0,0.0
60,Saint-Philippe,CA,2019-11-08 06:37:12,45.36,-73.48,30.2,79,90,8.05,light snow,0.0,0.0
61,Sambava,MG,2019-11-08 06:37:12,-14.27,50.17,76.59,86,99,3.78,light rain,1.44,0.0
62,Longyearbyen,NO,2019-11-08 06:33:23,78.22,15.63,15.8,66,20,4.7,few clouds,0.0,0.0
63,Lyuban,BY,2019-11-08 06:37:12,52.8,28.0,42.82,96,76,5.01,broken clouds,0.0,0.0
64,Borba,BR,2019-11-08 06:37:12,-4.39,-59.59,76.98,77,96,2.62,overcast clouds,0.0,0.0
65,Guerrero Negro,MX,2019-11-08 06:37:13,27.97,-114.04,66.76,79,100,4.94,overcast clouds,0.0,0.0
66,Dikson,RU,2019-11-08 06:37:13,73.51,80.55,-6.27,97,74,10.42,broken clouds,0.0,0.0
67,Punta Arenas,CL,2019-11-08 06:37:13,-53.16,-70.91,35.6,80,40,16.11,scattered clouds,0.0,0.0
68,Tuktoyaktuk,CA,2019-11-08 06:37:13,69.44,-133.03,10.4,78,90,18.34,overcast clouds,0.0,0.0
69,South Lake Tahoe,US,2019-11-08 06:37:13,38.93,-119.98,48.2,30,1,2.86,clear sky,0.0,0.0
70,Bubaque,GW,2019-11-08 06:37:14,11.28,-15.83,83.48,64,7,8.34,clear sky,0.0,0.0
71,Mount Isa,AU,2019-11-08 06:37:14,-20.73,139.49,98.6,7,15,12.75,few clouds,0.0,0.0
72,Tamandare,BR,2019-11-08 06:37:14,-8.28,-70.75,71.24,99,100,2.08,overcast clouds,0.0,0.0
73,Karratha,AU,2019-11-08 06:37:14,-20.74,116.85,83.37,54,54,12.35,broken clouds,0.0,0.0
74,New Norfolk,AU,2019-11-08 06:37:14,-42.78,147.06,48.2,66,75,12.75,light intensity shower rain,0.0,0.0
75,Caravelas,BR,2019-11-08 06:37:15,-17.73,-39.27,68.97,96,2,7.27,clear sky,0.0,0.0
76,Naze,NG,2019-11-08 06:37:15,5.43,7.07,77.0,94,75,1.81,broken clouds,0.0,0.0
77,Tabas,IR,2019-11-08 06:37:15,33.6,56.92,62.6,13,0,4.68,clear sky,0.0,0.0
78,Castro,CL,2019-11-08 06:37:15,-42.48,-73.76,35.6,90,98,2.91,overcast clouds,0.0,0.0
79,Oriximina,BR,2019-11-08 06:37:15,-1.77,-55.87,80.69,68,36,2.35,scattered clouds,0.0,0.0
80,Airai,TL,2019-11-08 06:37:15,-8.93,125.41,82.63,43,0,8.97,clear sky,0.0,0.0
81,Eyl,SO,2019-11-08 06:37:16,7.98,49.82,80.58,75,46,8.14,scattered clouds,0.0,0.0
82,Sao Felix Do Xingu,BR,2019-11-08 06:37:16,-6.64,-51.99,70.83,94,51,0.58,light rain,0.94,0.0
83,Dali,CN,2019-11-08 06:37:16,34.79,109.94,63.84,44,0,5.77,clear sky,0.0,0.0
84,Port Macquarie,AU,2019-11-08 06:37:16,-31.43,152.91,89.6,10,0,16.11,clear sky,0.0,0.0
85,Avarua,CK,2019-11-08 06:37:16,-21.21,-159.78,75.2,83,100,12.75,light intensity drizzle,0.0,0.0
86,Port Elizabeth,US,2019-11-08 06:37:17,39.31,-74.98,46.4,75,90,13.87,overcast clouds,0.0,0.0
87,Vila Velha,BR,2019-11-08 06:37:17,-3.71,-38.6,80.6,74,40,13.87,scattered clouds,0.0,0.0
88,San Francisco,CO,2019-11-08 06:32:34,1.17,-76.88,47.66,93,57,3.96,broken clouds,0.0,0.0
89,Arraial Do Cabo,BR,2019-11-08 06:37:17,-22.97,-42.02,72.93,91,100,9.71,light rain,0.13,0.0
90,Campbell River,CA,2019-11-08 06:37:17,50.02,-125.24,42.8,93,75,2.89,broken clouds,0.0,0.0
91,Souillac,FR,2019-11-08 06:37:18,45.6,-0.6,46.4,93,83,13.87,light rain,0.0,0.0
92,Barrow,AR,2019-11-08 06:37:18,-38.31,-60.23,40.64,93,30,7.96,scattered clouds,0.0,0.0
93,Mataura,NZ,2019-11-08 06:37:18,-46.19,168.86,61.05,56,43,5.75,scattered clouds,0.0,0.0
94,Provideniya,RU,2019-11-08 06:37:18,64.42,-173.23,32.0,80,2,17.9,extreme rain,0.0,0.0
95,Memaliaj,AL,2019-11-08 06:37:18,40.35,19.98,54.41,87,65,7.67,light rain,0.56,0.0
96,Maltahohe,NA,2019-11-08 06:37:19,-24.83,16.98,69.71,16,50,16.64,scattered clouds,0.0,0.0
97,Naifaru,MV,2019-11-08 06:37:19,5.44,73.37,82.72,72,57,5.41,broken clouds,0.0,0.0
98,Coquimbo,CL,2019-11-08 06:37:19,-29.95,-71.34,55.4,93,0,6.93,clear sky,0.0,0.0
99,Dunda,IN,2019-11-08 06:37:19,30.62,78.32,70.29,33,27,2.15,scattered clouds,0.0,0.0
100,Meulaboh,ID,2019-11-08 06:37:19,4.14,96.13,80.76,72,100,1.97,overcast clouds,0.0,0.0
101,Ardesen,TR,2019-11-08 06:37:20,41.19,40.99,62.6,45,1,27.51,clear sky,0.0,0.0
102,Comodoro Rivadavia,AR,2019-11-08 06:37:20,-45.87,-67.48,50.0,46,28,5.82,scattered clouds,0.0,0.0
103,Lebu,ET,2019-11-08 06:37:20,8.96,38.73,60.8,59,40,4.7,scattered clouds,0.0,0.0
104,Port Alfred,ZA,2019-11-08 06:37:20,-33.59,26.89,66.15,62,59,17.05,broken clouds,0.0,0.0
105,Amarpur,IN,2019-11-08 06:37:20,23.52,91.65,84.2,74,75,3.2,haze,0.0,0.0
106,Garowe,SO,2019-11-08 06:37:21,8.41,48.48,79.56,59,20,8.63,few clouds,0.0,0.0
107,Nikolskoye,RU,2019-11-08 06:37:21,59.7,30.79,26.6,92,90,8.95,mist,0.0,0.0
108,Butaritari,KI,2019-11-08 06:37:21,3.07,172.79,84.87,63,18,4.74,few clouds,0.0,0.0
109,Indianola,US,2019-11-08 06:37:21,40.24,-100.42,28.4,85,1,8.05,clear sky,0.0,0.0
110,Suluova,TR,2019-11-08 06:37:21,40.83,35.65,51.8,66,48,2.93,scattered clouds,0.0,0.0
111,Lorengau,PG,2019-11-08 06:37:22,-2.02,147.27,81.91,81,99,13.33,light rain,2.25,0.0
112,Port Blair,IN,2019-11-08 06:35:15,11.67,92.75,82.92,78,75,12.1,light rain,0.13,0.0
113,Chuy,UY,2019-11-08 06:37:22,-33.69,-53.46,60.31,95,0,8.14,clear sky,0.0,0.0
114,Leningradskiy,RU,2019-11-08 06:37:22,69.38,178.42,18.95,85,9,17.81,clear sky,0.0,0.0
115,Mazagao,BR,2019-11-08 06:37:22,-0.12,-51.29,80.6,94,7,6.93,clear sky,0.0,0.0
116,Victoria,BN,2019-11-08 06:37:23,5.28,115.24,87.8,70,75,5.82,broken clouds,0.0,0.0
117,Miramar,CR,2019-11-08 06:37:23,10.09,-84.73,73.4,69,40,12.75,scattered clouds,0.0,0.0
118,Nanortalik,GL,2019-11-08 06:37:23,60.14,-45.24,35.49,76,83,17.36,broken clouds,0.0,0.0
119,Iberia,PE,2019-11-08 06:37:23,-11.41,-69.49,72.37,96,100,0.58,light rain,0.69,0.0
120,Cherskiy,RU,2019-11-08 06:37:23,68.75,161.3,18.28,73,100,5.64,overcast clouds,0.0,0.0
121,Guozhen,CN,2019-11-08 06:37:24,29.3,113.14,72.75,31,0,6.44,clear sky,0.0,0.0
122,Carnarvon,ZA,2019-11-08 06:37:24,-30.97,22.13,56.52,41,27,16.37,scattered clouds,0.0,0.0
123,Guangyuan,CN,2019-11-08 06:37:24,32.43,105.86,60.49,65,93,4.16,light rain,0.19,0.0
124,Mishelevka,RU,2019-11-08 06:37:24,52.86,103.17,33.62,81,99,4.85,overcast clouds,0.0,0.0
125,Bredasdorp,ZA,2019-11-08 06:37:24,-34.53,20.04,59.0,77,75,3.36,broken clouds,0.0,0.0
126,Okakarara,NA,2019-11-08 06:37:25,-20.59,17.46,75.76,39,100,14.9,overcast clouds,0.0,0.0
127,Voh,NC,2019-11-08 06:37:25,-20.95,164.69,72.45,68,1,6.8,clear sky,0.0,0.0
128,Klaksvik,FO,2019-11-08 06:37:26,62.23,-6.59,32.0,60,85,9.17,overcast clouds,0.0,0.0
129,Brigantine,US,2019-11-08 06:37:26,39.41,-74.36,46.4,70,90,16.11,overcast clouds,0.0,0.0
130,Hilo,US,2019-11-08 06:37:26,19.71,-155.08,75.2,78,1,3.09,clear sky,0.0,0.0
131,Palmer,AU,2019-11-08 06:37:26,-34.85,139.16,60.8,41,40,21.92,scattered clouds,0.0,0.0
132,Sobolevo,RU,2019-11-08 06:37:26,54.43,31.9,42.75,92,100,3.83,light rain,0.13,0.0
133,Marquette,US,2019-11-08 06:37:21,46.54,-87.4,28.4,92,1,9.17,clear sky,0.0,0.0
134,Port Lincoln,AU,2019-11-08 06:37:27,-34.72,135.86,58.41,50,48,19.53,scattered clouds,0.0,0.0
135,Iqaluit,CA,2019-11-08 06:37:27,63.75,-68.52,14.0,78,75,18.34,broken clouds,0.0,0.0
136,Nishihara,JP,2019-11-08 06:37:27,35.74,139.53,64.4,39,40,2.24,scattered clouds,0.0,0.0
137,Sal Rei,CV,2019-11-08 06:37:28,16.18,-22.92,75.2,69,40,13.87,scattered clouds,0.0,0.0
138,Leopold,US,2019-11-08 06:37:28,38.1,-86.58,30.2,86,1,8.05,clear sky,0.0,0.0
139,Kalangala,UG,2019-11-08 06:37:28,-0.32,32.29,73.98,73,97,10.51,light rain,1.13,0.0
140,Sao Filipe,CV,2019-11-08 06:37:29,14.9,-24.5,73.89,80,100,11.86,overcast clouds,0.0,0.0
141,Mount Gambier,AU,2019-11-08 06:37:29,-37.83,140.78,53.6,62,40,23.04,scattered clouds,0.0,0.0
142,Tosno,RU,2019-11-08 06:37:29,59.54,30.88,26.6,92,90,8.95,mist,0.0,0.0
143,Malindi,KE,2019-11-08 06:37:29,-3.22,40.12,82.4,83,40,6.29,scattered clouds,0.0,0.0
144,Kavaratti,IN,2019-11-08 06:37:29,10.57,72.64,86.0,70,20,9.17,few clouds,0.0,0.0
145,Torbay,CA,2019-11-08 06:37:29,47.66,-52.73,37.4,72,90,11.41,overcast clouds,0.0,0.0
146,Louga,SN,2019-11-08 06:37:30,15.62,-16.22,69.8,83,43,4.7,scattered clouds,0.0,0.0
147,Tanout,NE,2019-11-08 06:37:30,14.97,8.88,77.95,16,1,9.01,clear sky,0.0,0.0
148,Surgut,RU,2019-11-08 06:37:30,61.25,73.4,3.2,84,96,11.18,overcast clouds,0.0,0.0
149,Chokurdakh,RU,2019-11-08 06:37:30,70.62,147.9,-8.4,98,77,7.36,broken clouds,0.0,0.0
150,Havre-Saint-Pierre,CA,2019-11-08 06:37:30,50.23,-63.6,19.4,79,1,5.82,clear sky,0.0,0.0
151,Upernavik,GL,2019-11-08 06:37:31,72.79,-56.15,8.28,65,0,6.26,clear sky,0.0,0.0
152,Elizabeth City,US,2019-11-08 06:37:31,36.3,-76.22,60.8,93,90,5.82,light rain,0.0,0.0
153,Yulara,AU,2019-11-08 06:37:31,-25.24,130.99,91.4,9,0,10.29,clear sky,0.0,0.0
154,Bonham,US,2019-11-08 06:37:32,33.58,-96.18,46.4,86,75,6.93,broken clouds,0.0,0.0
155,Cidreira,BR,2019-11-08 06:37:32,-30.17,-50.22,68.65,90,10,12.77,clear sky,0.0,0.0
156,Fonte Boa,BR,2019-11-08 06:37:32,-2.51,-66.09,75.07,83,100,0.56,overcast clouds,0.0,0.0
157,Ribeira Grande,PT,2019-11-08 06:37:32,38.52,-28.7,61.95,83,74,4.88,broken clouds,0.0,0.0
158,Scheemda,NL,2019-11-08 06:37:32,53.18,6.97,39.2,93,0,9.17,clear sky,0.0,0.0
159,Casalmaggiore,IT,2019-11-08 06:37:32,44.99,10.42,51.8,93,75,4.7,moderate rain,0.0,0.0
160,Rock Sound,BS,2019-11-08 06:37:33,24.9,-76.2,79.7,82,0,10.07,clear sky,0.0,0.0
161,Tomatlan,MX,2019-11-08 06:37:33,19.93,-105.25,70.5,90,52,2.48,broken clouds,0.0,0.0
162,Kimparana,ML,2019-11-08 06:37:33,12.83,-4.92,79.39,40,13,4.43,few clouds,0.0,0.0
163,Beringovskiy,RU,2019-11-08 06:37:33,63.05,179.32,27.18,93,53,14.07,broken clouds,0.0,0.0
164,Pangnirtung,CA,2019-11-08 06:37:33,66.15,-65.72,15.28,65,53,3.51,broken clouds,0.0,0.0
165,Wewak,PG,2019-11-08 06:37:34,-3.55,143.63,78.64,85,98,8.77,light rain,1.31,0.0
166,Tucupita,VE,2019-11-08 06:37:34,9.06,-62.05,74.44,95,84,3.15,broken clouds,0.0,0.0
167,Vardo,US,2019-11-08 06:37:34,39.62,-77.74,41.0,74,90,6.93,overcast clouds,0.0,0.0
168,Narsaq,GL,2019-11-08 06:37:34,60.91,-46.05,46.4,28,100,24.16,overcast clouds,0.0,0.0
169,Cape Town,ZA,2019-11-08 06:32:59,-33.93,18.42,64.4,55,4,12.75,clear sky,0.0,0.0
170,Ahipara,NZ,2019-11-08 06:37:35,-35.17,173.16,64.99,90,74,14.45,light rain,0.19,0.0
171,Port Hardy,CA,2019-11-08 06:37:35,50.7,-127.42,51.8,71,75,9.17,broken clouds,0.0,0.0
172,Juba,EE,2019-11-08 06:37:35,57.82,26.93,33.8,100,90,2.24,light intensity drizzle,0.0,0.0
173,Cabo San Lucas,MX,2019-11-08 06:36:17,22.89,-109.91,73.27,73,100,0.6,overcast clouds,0.0,0.0
174,Malbork,PL,2019-11-08 06:37:35,54.04,19.03,37.4,100,40,6.93,mist,0.0,0.0
175,Alekseyevsk,RU,2019-11-08 06:37:36,57.84,108.35,30.43,95,100,12.57,light snow,0.0,1.31
176,Moerai,PF,2019-11-08 06:37:36,-22.43,-151.33,73.62,79,52,12.86,broken clouds,0.0,0.0
177,Sept-Iles,CA,2019-11-08 06:35:28,50.2,-66.38,10.4,85,20,4.7,few clouds,0.0,0.0
178,Svetlogorsk,RU,2019-11-08 06:37:36,53.14,59.15,48.2,70,75,20.13,broken clouds,0.0,0.0
179,Lappeenranta,FI,2019-11-08 06:37:36,61.06,28.19,24.8,92,90,4.7,light shower snow,0.0,0.0
180,East London,ZA,2019-11-08 06:37:36,-33.02,27.91,68.0,49,20,18.34,few clouds,0.0,0.0
181,Reitz,ZA,2019-11-08 06:37:37,-27.8,28.43,62.55,73,7,12.77,clear sky,0.0,0.0
182,Kodiak,US,2019-11-08 06:37:37,39.95,-94.76,21.2,79,1,3.53,clear sky,0.0,0.0
183,Ishigaki,JP,2019-11-08 06:37:37,24.34,124.16,78.8,65,40,21.92,scattered clouds,0.0,0.0
184,Viedma,AR,2019-11-08 06:37:37,-40.81,-62.99,50.11,68,81,12.15,broken clouds,0.0,0.0
185,Bilma,NE,2019-11-08 06:37:37,18.69,12.92,75.79,18,0,6.67,clear sky,0.0,0.0
186,Bowen,AU,2019-11-08 06:37:38,-20.01,148.25,86.0,51,0,17.22,clear sky,0.0,0.0
187,Luderitz,NA,2019-11-08 06:35:07,-26.65,15.16,60.8,63,52,10.29,broken clouds,0.0,0.0
188,Menemen,TR,2019-11-08 06:37:38,38.6,27.08,68.0,87,10,2.24,clear sky,0.0,0.0
189,Nakamura,JP,2019-11-08 06:37:38,35.17,136.87,64.4,42,20,19.46,few clouds,0.0,0.0
190,Cairns,AU,2019-11-08 06:36:49,-16.92,145.77,82.4,58,31,6.93,scattered clouds,0.0,0.0
191,Gunjur,GM,2019-11-08 06:37:39,13.18,-16.76,81.41,61,30,15.17,scattered clouds,0.0,0.0
192,Ilulissat,GL,2019-11-08 06:37:39,69.22,-51.1,33.8,34,100,11.41,overcast clouds,0.0,0.0
193,Lasa,CY,2019-11-08 06:37:39,34.92,32.53,71.6,37,0,3.36,clear sky,0.0,0.0
194,Antunez,MX,2019-11-08 06:37:40,29.04,-111.04,69.8,56,40,4.7,scattered clouds,0.0,0.0
195,Khovu-Aksy,RU,2019-11-08 06:37:40,51.13,93.72,31.39,73,84,3.18,broken clouds,0.0,0.0
196,Kjollefjord,NO,2019-11-08 06:37:40,70.95,27.35,28.4,92,40,12.75,scattered clouds,0.0,0.0
197,Coihaique,CL,2019-11-08 06:37:40,-45.58,-72.07,37.4,74,20,1.12,few clouds,0.0,0.0
198,Chulym,RU,2019-11-08 06:37:40,55.09,80.97,32.97,90,100,21.36,light snow,0.0,1.19
199,Vanimo,PG,2019-11-08 06:37:41,-2.67,141.3,84.58,67,100,5.46,overcast clouds,0.0,0.0
200,Saskylakh,RU,2019-11-08 06:37:41,71.97,114.09,-24.74,98,0,5.95,clear sky,0.0,0.0
201,Pandan,PH,2019-11-08 06:37:41,11.72,122.09,83.17,77,89,21.47,overcast clouds,0.0,0.0
202,Saint-Augustin,CA,2019-11-08 06:37:41,45.63,-73.98,26.6,79,90,8.05,light snow,0.0,0.0
203,Alta Floresta,BR,2019-11-08 06:37:41,-9.87,-56.08,71.2,90,100,3.8,overcast clouds,0.0,0.0
204,Sault Sainte Marie,CA,2019-11-08 06:37:42,46.49,-84.36,19.4,78,1,4.7,clear sky,0.0,0.0
205,Lagoa,PT,2019-11-08 06:37:42,37.14,-8.45,53.6,87,75,6.93,broken clouds,0.0,0.0
206,The Valley,AI,2019-11-08 06:37:42,18.22,-63.06,80.6,78,40,8.05,scattered clouds,0.0,0.0
207,Dukat,AL,2019-11-08 06:37:42,40.25,19.57,68.74,68,82,8.32,light rain,2.63,0.0
208,Zhaotong,CN,2019-11-08 06:37:43,27.34,103.71,50.05,84,100,3.6,overcast clouds,0.0,0.0
209,Sao Joao Do Piaui,BR,2019-11-08 06:37:43,-8.36,-42.25,77.74,50,51,6.22,broken clouds,0.0,0.0
210,Hami,CN,2019-11-08 06:37:43,42.84,93.51,49.82,33,67,8.03,broken clouds,0.0,0.0
211,Kars,TR,2019-11-08 06:37:43,40.61,43.1,37.4,80,0,1.12,clear sky,0.0,0.0
212,Mount Vernon,US,2019-11-08 06:37:43,38.73,-77.1,46.4,56,1,10.29,clear sky,0.0,0.0
213,Fairmont,US,2019-11-08 06:37:44,40.64,-97.59,24.8,85,1,5.82,clear sky,0.0,0.0
214,Katsuura,JP,2019-11-08 06:37:44,33.93,134.5,62.6,48,20,10.29,few clouds,0.0,0.0
215,Baykit,RU,2019-11-08 06:37:44,61.68,96.39,31.96,88,100,9.95,overcast clouds,0.0,0.0
216,Bethel,US,2019-11-08 06:35:15,60.79,-161.76,30.2,100,90,10.29,light rain,0.0,0.0
217,Quang Ngai,VN,2019-11-08 06:33:15,15.12,108.8,78.15,71,48,19.17,light rain,0.38,0.0
218,Bo Phloi,TH,2019-11-08 06:37:45,14.32,99.52,79.75,68,100,11.14,overcast clouds,0.0,0.0
219,Tabou,CI,2019-11-08 06:37:45,4.42,-7.36,74.12,96,62,2.37,light rain,0.44,0.0
220,Hambantota,LK,2019-11-08 06:37:45,6.12,81.12,87.8,79,40,10.29,scattered clouds,0.0,0.0
221,Vila Franca Do Campo,PT,2019-11-08 06:37:46,37.72,-25.43,59.0,82,20,4.7,few clouds,0.0,0.0
222,Geraldton,CA,2019-11-08 06:37:46,49.72,-86.95,10.4,66,90,2.24,light snow,0.0,0.0
223,Lakselv,NO,2019-11-08 06:37:46,70.05,24.96,17.6,85,75,8.05,broken clouds,0.0,0.0
224,Belyy Yar,RU,2019-11-08 06:37:46,53.6,91.39,42.8,52,40,15.66,scattered clouds,0.0,0.0
225,Rochegda,RU,2019-11-08 06:37:46,62.67,43.41,14.36,89,64,4.52,broken clouds,0.0,0.0
226,Pishin,PK,2019-11-08 06:37:47,30.58,67.0,52.84,17,0,2.86,clear sky,0.0,0.0
227,San Quintin,PH,2019-11-08 06:37:47,17.54,120.52,86.29,69,5,4.47,moderate rain,4.19,0.0
228,Urucui,BR,2019-11-08 06:37:47,-7.23,-44.56,79.54,53,56,0.22,broken clouds,0.0,0.0
229,Zyryanka,RU,2019-11-08 06:37:47,65.73,150.89,-1.74,95,13,4.38,few clouds,0.0,0.0
230,Vilkaviskis,LT,2019-11-08 06:37:48,54.65,23.03,39.9,92,0,7.67,clear sky,0.0,0.0
231,Ustupo,PA,2019-11-08 06:37:48,9.13,-77.93,73.83,98,100,1.07,overcast clouds,0.0,0.0
232,Tigzirt,DZ,2019-11-08 06:37:48,36.57,4.2,49.89,87,81,8.97,light rain,1.13,0.0
233,Hamilton,CA,2019-11-08 06:37:16,43.26,-79.87,28.4,86,75,5.82,broken clouds,0.0,0.0
234,Saldanha,PT,2019-11-08 06:37:49,41.42,-6.55,37.04,91,14,10.29,few clouds,0.0,0.0
235,Ketchikan,US,2019-11-08 06:37:49,55.34,-131.65,51.8,100,90,23.04,moderate rain,0.0,0.0
236,Kyzyl-Suu,KG,2019-11-08 06:37:49,42.34,78.0,43.43,42,0,2.66,clear sky,0.0,0.0
237,Atasu,KZ,2019-11-08 06:37:49,48.68,71.64,35.94,52,95,15.43,overcast clouds,0.0,0.0
238,San Rafael,AR,2019-11-08 06:33:16,-34.61,-68.33,61.75,37,34,3.74,scattered clouds,0.0,0.0
239,Izumo,JP,2019-11-08 06:34:07,35.37,132.75,64.4,45,75,14.99,broken clouds,0.0,0.0
240,San Patricio,PY,2019-11-08 06:37:50,-26.98,-56.83,69.06,98,20,4.34,few clouds,0.0,0.0
241,Dunedin,NZ,2019-11-08 06:33:40,-45.87,170.5,62.91,44,100,17.27,overcast clouds,0.0,0.0
242,Azanka,RU,2019-11-08 06:37:50,58.04,64.79,21.49,78,89,12.1,overcast clouds,0.0,0.0
243,Maldonado,UY,2019-11-08 06:37:51,-34.91,-54.96,57.2,82,0,5.82,clear sky,0.0,0.0
244,Selty,RU,2019-11-08 06:37:51,57.31,52.14,23.97,63,65,6.51,broken clouds,0.0,0.0
245,Mountain Home,US,2019-11-08 06:33:14,43.13,-115.69,35.6,86,1,1.95,clear sky,0.0,0.0
246,Henties Bay,NA,2019-11-08 06:37:51,-22.12,14.28,59.61,75,26,3.89,scattered clouds,0.0,0.0
247,Namatanai,PG,2019-11-08 06:37:52,-3.66,152.44,84.31,68,100,5.39,overcast clouds,0.0,0.0
248,Gushikawa,JP,2019-11-08 06:37:52,26.35,127.87,78.8,50,20,12.75,few clouds,0.0,0.0
249,Dehloran,IR,2019-11-08 06:37:52,32.69,47.27,76.41,22,0,2.08,clear sky,0.0,0.0
250,Manyana,AU,2019-11-08 06:37:52,-35.26,150.51,69.8,32,80,27.51,light rain,1.06,0.0
251,Namibe,AO,2019-11-08 06:37:52,-15.19,12.15,73.13,83,89,7.7,light rain,0.75,0.0
252,Alice Springs,AU,2019-11-08 06:37:53,-23.7,133.88,93.2,9,0,9.17,clear sky,0.0,0.0
253,Brooks,CA,2019-11-08 06:37:53,50.57,-111.89,26.47,74,74,7.02,broken clouds,0.0,0.0
254,Excelsior Springs,US,2019-11-08 06:37:53,39.34,-94.23,28.4,92,1,2.77,clear sky,0.0,0.0
255,Lazaro Cardenas,MX,2019-11-08 06:37:53,28.39,-105.62,59.65,80,100,5.26,light rain,1.0,0.0
256,Dano,BF,2019-11-08 06:37:53,11.14,-3.06,76.82,61,0,4.45,clear sky,0.0,0.0
257,Yelizovo,RU,2019-11-08 06:37:54,53.19,158.38,39.2,93,90,13.42,light intensity shower rain,0.0,0.0
258,Xinzhou,CN,2019-11-08 06:37:54,38.41,112.73,53.89,47,0,3.56,clear sky,0.0,0.0
259,Umm Lajj,SA,2019-11-08 06:37:54,25.02,37.27,81.61,40,0,4.32,clear sky,0.0,0.0
260,Inirida,CO,2019-11-08 06:37:54,3.87,-67.92,73.08,97,48,1.95,scattered clouds,0.0,0.0
261,Noumea,NC,2019-11-08 06:37:54,-22.28,166.46,80.6,47,0,11.41,clear sky,0.0,0.0
262,Taunggyi,MM,2019-11-08 06:37:55,20.78,97.03,76.06,78,22,2.82,light rain,2.38,0.0
263,Matara,BI,2019-11-08 06:37:55,-3.48,29.48,66.15,77,82,5.08,light rain,0.38,0.0
264,Hennenman,ZA,2019-11-08 06:37:55,-27.97,27.03,71.08,14,23,5.32,few clouds,0.0,0.0
265,Sawakin,SD,2019-11-08 06:37:55,19.1,37.33,86.49,69,0,7.74,clear sky,0.0,0.0
266,Rawson,AR,2019-11-08 06:37:55,-43.3,-65.11,54.52,48,3,15.23,clear sky,0.0,0.0
267,Kununurra,AU,2019-11-08 06:37:55,-15.77,128.74,105.8,10,46,5.82,scattered clouds,0.0,0.0
268,Kamina,CD,2019-11-08 06:37:56,-8.74,25.0,71.17,83,100,3.53,overcast clouds,0.0,0.0
269,Severo-Kurilsk,RU,2019-11-08 06:37:56,50.68,156.12,33.37,73,83,34.47,light snow,0.0,0.25
270,Vao,EE,2019-11-08 06:37:56,59.1,26.19,34.0,98,100,2.77,overcast clouds,0.0,0.0
271,Arvin,US,2019-11-08 06:37:57,35.21,-118.83,64.4,36,1,4.7,clear sky,0.0,0.0
272,Marsa Matruh,EG,2019-11-08 06:37:57,31.35,27.25,62.6,82,0,4.76,clear sky,0.0,0.0
273,Talnakh,RU,2019-11-08 06:37:57,69.49,88.39,-14.81,75,20,15.66,few clouds,0.0,0.0
274,Aleksandrov Gay,RU,2019-11-08 06:37:57,50.14,48.57,54.28,70,99,13.0,overcast clouds,0.0,0.0
275,Auki,NG,2019-11-08 06:37:57,12.18,6.51,71.96,34,0,3.74,clear sky,0.0,0.0
276,Caucaia,BR,2019-11-08 06:37:58,-3.73,-38.66,80.6,74,40,13.87,scattered clouds,0.0,0.0
277,Maniitsoq,GL,2019-11-08 06:37:58,65.42,-52.9,37.89,47,100,23.87,overcast clouds,0.0,0.0
278,Gao,ML,2019-11-08 06:37:58,16.28,-0.04,80.31,17,0,7.7,clear sky,0.0,0.0
279,Norman Wells,CA,2019-11-08 06:37:58,65.28,-126.83,12.2,85,75,10.29,light snow,0.0,0.0
280,Codrington,AU,2019-11-08 06:37:58,-28.95,153.24,100.4,5,0,17.22,clear sky,0.0,0.0
281,Batagay,RU,2019-11-08 06:37:59,67.65,134.64,-6.34,96,93,2.13,overcast clouds,0.0,0.0
282,Kenai,US,2019-11-08 06:34:19,60.55,-151.26,42.8,87,90,13.87,light rain,0.0,0.0
283,Sri Aman,MY,2019-11-08 06:37:59,1.24,111.46,91.4,63,75,2.24,broken clouds,0.0,0.0
284,Eyrarbakki,IS,2019-11-08 06:37:59,63.86,-21.15,37.4,64,90,19.46,overcast clouds,0.0,0.0
285,Brae,GB,2019-11-08 06:37:59,60.4,-1.35,35.6,71,2,17.56,light rain,0.13,0.0
286,Santa Rosa,AR,2019-11-08 06:37:59,-36.62,-64.29,55.49,47,32,14.03,scattered clouds,0.0,0.0
287,Greytown,ZA,2019-11-08 06:38:00,-29.06,30.59,55.87,92,100,5.01,light rain,0.5,0.0
288,Kruisfontein,ZA,2019-11-08 06:38:00,-34.0,24.73,60.78,70,73,10.6,light rain,0.56,0.0
289,Otavi,NA,2019-11-08 06:38:00,-19.64,17.34,71.53,57,100,5.61,light rain,0.31,0.0
290,Halvad,IN,2019-11-08 06:38:00,23.02,71.18,83.12,35,0,13.91,clear sky,0.0,0.0
291,Lompoc,US,2019-11-08 06:38:01,34.64,-120.46,55.4,93,1,8.34,clear sky,0.0,0.0
292,Talara,PE,2019-11-08 06:38:01,-4.58,-81.27,66.16,87,24,18.23,few clouds,0.0,0.0
293,Rabo De Peixe,PT,2019-11-08 06:38:01,37.8,-25.58,59.0,82,20,4.7,few clouds,0.0,0.0
294,Rafai,CF,2019-11-08 06:38:01,4.95,23.92,74.86,81,72,1.54,broken clouds,0.0,0.0
295,Hofn,IS,2019-11-08 06:38:02,64.25,-15.21,39.56,72,99,8.43,light snow,0.0,0.19
296,Jalu,LY,2019-11-08 06:38:02,29.03,21.55,65.41,86,0,11.68,clear sky,0.0,0.0
297,Delta Del Tigre,UY,2019-11-08 06:38:02,-34.76,-56.41,59.0,67,0,11.41,clear sky,0.0,0.0
298,Oranjemund,ZA,2019-11-08 06:38:02,-28.55,16.43,62.56,51,98,3.71,overcast clouds,0.0,0.0
299,Port Hedland,AU,2019-11-08 06:38:02,-20.31,118.58,104.0,24,22,14.99,few clouds,0.0,0.0
300,Sakaraha,MG,2019-11-08 06:38:03,-22.91,44.53,91.4,27,0,7.56,clear sky,0.0,0.0
301,Ukiah,US,2019-11-08 06:38:03,39.15,-123.21,53.6,66,1,2.48,clear sky,0.0,0.0
302,Milheiros De Poiares,PT,2019-11-08 06:38:03,40.92,-8.47,42.8,100,20,2.24,few clouds,0.0,0.0
303,Clyde River,CA,2019-11-08 06:38:03,70.47,-68.59,12.2,85,75,13.87,broken clouds,0.0,0.0
304,Rio Gallegos,AR,2019-11-08 06:38:03,-51.62,-69.22,35.6,80,20,13.87,few clouds,0.0,0.0
305,Taoudenni,ML,2019-11-08 06:38:04,22.68,-3.98,66.54,26,59,4.03,broken clouds,0.0,0.0
306,Ouesso,CG,2019-11-08 06:38:04,1.61,16.05,73.26,90,57,0.58,light rain,0.19,0.0
307,Misratah,LY,2019-11-08 06:38:04,32.38,15.09,68.77,58,75,7.72,broken clouds,0.0,0.0
308,Panama City,US,2019-11-08 06:38:04,30.16,-85.65,71.6,94,20,5.82,light rain,0.0,0.0
309,Camacha,PT,2019-11-08 06:38:04,33.08,-16.33,66.2,63,75,8.05,broken clouds,0.0,0.0
310,Paamiut,GL,2019-11-08 06:38:05,61.99,-49.67,40.17,48,99,12.93,overcast clouds,0.0,0.0
311,Saint George,GR,2019-11-08 06:38:05,39.45,22.34,55.4,100,40,2.24,scattered clouds,0.0,0.0
312,Imeni Poliny Osipenko,RU,2019-11-08 06:38:05,52.42,136.49,22.08,41,75,3.02,broken clouds,0.0,0.0
313,Praia,BR,2019-11-08 06:38:05,-20.25,-43.81,66.42,89,98,0.89,light rain,0.25,0.0
314,Linxia,CN,2019-11-08 06:38:05,35.6,103.21,48.52,49,0,6.31,clear sky,0.0,0.0
315,Saint-Pierre,FR,2019-11-08 06:38:06,48.95,4.24,39.2,93,90,8.05,overcast clouds,0.0,0.0
316,Panjab,AF,2019-11-08 06:38:06,34.38,67.02,32.83,13,0,0.76,clear sky,0.0,0.0
317,Krasnyy Chikoy,RU,2019-11-08 06:38:06,50.36,108.75,38.55,53,29,1.14,scattered clouds,0.0,0.0
318,Sao Miguel Do Araguaia,BR,2019-11-08 06:38:06,-13.28,-50.16,78.37,70,88,2.8,overcast clouds,0.0,0.0
319,Hovd,NO,2019-11-08 06:38:06,63.83,10.7,23.0,85,20,6.93,few clouds,0.0,0.0
320,Acapulco,MX,2019-11-08 06:38:07,16.86,-99.88,80.6,83,40,6.93,scattered clouds,0.0,0.0
321,Tarata,PE,2019-11-08 06:38:07,-17.47,-70.03,59.0,93,90,5.82,overcast clouds,0.0,0.0
322,Havelock,US,2019-11-08 06:38:07,34.88,-76.9,64.4,88,90,13.87,light rain,0.0,0.0
323,Balotra,IN,2019-11-08 06:37:39,25.83,72.24,82.87,23,0,15.73,clear sky,0.0,0.0
324,San Pedro Del Pinatar,ES,2019-11-08 06:38:07,37.84,-0.79,57.2,47,21,12.75,few clouds,0.0,0.0
325,Palu,ID,2019-11-08 06:38:07,-0.9,119.87,82.51,64,31,4.88,light rain,2.13,0.0
326,Awjilah,LY,2019-11-08 06:38:08,29.14,21.3,65.41,86,0,11.68,clear sky,0.0,0.0
327,Biak,ID,2019-11-08 06:38:08,-0.91,122.88,83.14,67,24,11.59,few clouds,0.0,0.0
328,General Roca,AR,2019-11-08 06:38:08,-39.03,-67.58,51.8,53,48,12.06,scattered clouds,0.0,0.0
329,Tuatapere,NZ,2019-11-08 06:38:08,-46.13,167.69,50.85,82,41,5.91,light rain,1.94,0.0
330,Byron Bay,AU,2019-11-08 06:35:20,-28.65,153.62,100.4,35,0,19.46,clear sky,0.0,0.0
331,Najran,SA,2019-11-08 06:38:09,17.54,44.22,75.2,27,0,9.24,clear sky,0.0,0.0
332,Bonoua,CI,2019-11-08 06:38:09,5.27,-3.6,77.0,94,20,3.36,few clouds,0.0,0.0
333,Artigas,BR,2019-11-08 06:38:09,-30.4,-56.46,59.59,89,0,9.46,clear sky,0.0,0.0
334,Pipri,IN,2019-11-08 06:38:09,24.21,83.02,77.29,41,100,5.32,overcast clouds,0.0,0.0
335,Chateau-Gontier,FR,2019-11-08 06:38:10,47.83,-0.7,44.6,93,90,4.7,overcast clouds,0.0,0.0
336,Baker City,US,2019-11-08 06:38:10,44.77,-117.83,35.6,74,1,9.17,clear sky,0.0,0.0
337,Carutapera,BR,2019-11-08 06:38:10,-1.2,-46.02,80.71,82,5,15.08,clear sky,0.0,0.0
338,Calama,CL,2019-11-08 06:38:10,-22.46,-68.93,50.0,23,0,12.75,clear sky,0.0,0.0
339,Golkoy,TR,2019-11-08 06:38:10,40.69,37.62,64.4,63,30,5.32,scattered clouds,0.0,0.0
340,Baoning,CN,2019-11-08 06:38:11,25.34,110.03,77.0,33,1,13.42,clear sky,0.0,0.0
341,Egvekinot,RU,2019-11-08 06:38:11,66.32,-179.17,13.62,91,52,11.48,broken clouds,0.0,0.0
342,Bitung,ID,2019-11-08 06:38:11,1.44,125.19,87.8,66,40,8.05,scattered clouds,0.0,0.0
343,Pedernales,EC,2019-11-08 06:38:11,0.07,-80.05,72.14,88,100,6.04,overcast clouds,0.0,0.0
344,Uva,RU,2019-11-08 06:38:12,56.98,52.19,26.47,65,53,5.7,broken clouds,0.0,0.0
345,Middlebury,US,2019-11-08 06:38:12,44.01,-73.17,28.4,100,75,4.68,light rain,0.0,0.0
346,Hiriyur,IN,2019-11-08 06:38:12,13.94,76.62,81.45,59,2,7.72,light rain,0.37,0.0
347,Atambua,ID,2019-11-08 06:38:12,-9.11,124.89,84.31,63,21,7.16,light rain,0.13,0.0
348,Puerto Montt,CL,2019-11-08 06:38:13,-41.47,-72.94,42.8,87,94,6.93,overcast clouds,0.0,0.0
349,Tevaitoa,PF,2019-11-08 06:38:13,-16.78,-151.5,81.1,79,9,18.52,light rain,2.81,0.0
350,Itoman,JP,2019-11-08 06:38:13,26.12,127.67,78.8,53,20,20.8,few clouds,0.0,0.0
351,Ambulu,ID,2019-11-08 06:38:13,-8.35,113.61,79.25,79,0,10.33,clear sky,0.0,0.0
352,Shu,KZ,2019-11-08 06:38:13,43.6,73.76,46.83,44,0,2.04,clear sky,0.0,0.0
353,Moroni,GR,2019-11-08 06:38:14,35.09,24.92,71.6,73,20,16.11,few clouds,0.0,0.0
354,Stepnyak,KZ,2019-11-08 06:38:14,52.83,70.79,37.8,92,100,21.92,overcast clouds,0.0,0.0
355,Keffi,NG,2019-11-08 06:38:14,8.85,7.88,73.4,83,77,3.36,broken clouds,0.0,0.0
356,San Rafael Del Sur,NI,2019-11-08 06:38:14,11.85,-86.44,77.0,88,20,4.7,few clouds,0.0,0.0
357,Pisco,PE,2019-11-08 06:38:14,-13.71,-76.2,60.8,82,0,4.7,clear sky,0.0,0.0
358,Taonan,CN,2019-11-08 06:38:15,45.34,122.78,42.69,19,0,5.26,clear sky,0.0,0.0
359,Los Llanos De Aridane,ES,2019-11-08 06:38:15,28.66,-17.92,69.8,73,90,10.29,overcast clouds,0.0,0.0
360,Martapura,ID,2019-11-08 06:38:15,-3.41,114.85,91.4,59,40,13.87,scattered clouds,0.0,0.0
361,Lata,IN,2019-11-08 06:38:16,30.78,78.62,29.71,90,38,7.72,light snow,0.0,0.38
362,Kiama,AU,2019-11-08 06:38:16,-34.67,150.86,69.8,32,47,27.51,scattered clouds,0.0,0.0
363,Sitka,US,2019-11-08 06:38:16,37.17,-99.65,33.87,29,0,4.83,clear sky,0.0,0.0
364,Ikalamavony,MG,2019-11-08 06:38:16,-21.17,46.6,85.6,26,93,1.74,overcast clouds,0.0,0.0
365,Eureka,US,2019-11-08 06:38:16,40.8,-124.16,48.2,93,90,3.36,mist,0.0,0.0
366,Cayenne,GF,2019-11-08 06:38:16,4.94,-52.33,75.2,94,40,5.01,scattered clouds,0.0,0.0
367,Xichang,CN,2019-11-08 06:38:17,27.88,102.25,54.32,65,76,6.58,light rain,0.44,0.0
368,Ayia Marina,GR,2019-11-08 06:38:17,37.75,23.53,60.8,87,75,2.24,broken clouds,0.0,0.0
369,Kerman,IR,2019-11-08 06:38:17,30.29,57.06,53.6,8,75,4.25,broken clouds,0.0,0.0
370,Lhokseumawe,ID,2019-11-08 06:38:18,5.18,97.15,75.79,85,100,3.04,light rain,0.25,0.0
371,Mayskiy,RU,2019-11-08 06:38:18,43.63,44.06,53.6,50,14,1.19,few clouds,0.0,0.0
372,Djambala,CG,2019-11-08 06:38:18,-2.55,14.76,70.36,92,100,2.19,light rain,1.0,0.0
373,Klishkivtsi,UA,2019-11-08 06:38:18,48.43,26.26,42.8,100,95,4.47,overcast clouds,0.0,0.0
374,Pacific Grove,US,2019-11-08 06:38:19,36.62,-121.92,55.4,76,90,4.7,overcast clouds,0.0,0.0
375,Hervey Bay,AU,2019-11-08 06:38:19,-25.3,152.85,82.4,58,0,21.92,clear sky,0.0,0.0
376,Boone,US,2019-11-08 06:37:25,36.22,-81.67,53.6,75,100,17.22,light rain,0.5,0.0
377,Shar,NG,2019-11-08 06:38:19,7.3,8.73,75.33,92,100,3.83,overcast clouds,0.0,0.0
378,Sioux Lookout,CA,2019-11-08 06:38:19,50.1,-91.92,14.0,56,90,5.82,light snow,0.0,0.0
379,Kirensk,RU,2019-11-08 06:38:19,57.78,108.12,29.91,94,100,11.45,light snow,0.0,1.13
380,Capao Da Canoa,BR,2019-11-08 06:38:20,-29.75,-50.01,68.65,90,10,12.77,clear sky,0.0,0.0
381,Jieshi,CN,2019-11-08 06:38:20,22.82,115.83,79.23,42,0,12.37,clear sky,0.0,0.0
382,Chernyshevskiy,RU,2019-11-08 06:38:20,63.01,112.47,-0.17,88,40,5.61,scattered clouds,0.0,0.0
383,Zhezkazgan,KZ,2019-11-08 06:38:20,47.8,67.71,42.8,28,88,8.95,overcast clouds,0.0,0.0
384,Lao Cai,VN,2019-11-08 06:36:59,22.48,103.95,76.96,52,69,3.69,broken clouds,0.0,0.0
385,Mahibadhoo,MV,2019-11-08 06:38:21,3.78,72.97,83.57,71,95,7.92,moderate rain,3.44,0.0
386,Balkhash,KZ,2019-11-08 06:38:21,46.84,74.98,37.4,74,71,6.71,broken clouds,0.0,0.0
387,Qaqortoq,GL,2019-11-08 06:38:21,60.72,-46.03,46.4,28,100,24.16,overcast clouds,0.0,0.0
388,Oyama,JP,2019-11-08 06:38:21,36.31,139.8,60.8,48,20,9.17,few clouds,0.0,0.0
389,Male,UA,2019-11-08 06:38:21,50.74,33.7,45.52,91,86,6.02,overcast clouds,0.0,0.0
390,Nicoya,CR,2019-11-08 06:38:22,10.15,-85.45,80.6,69,99,9.17,overcast clouds,0.0,0.0
391,Colares,PT,2019-11-08 06:38:22,38.8,-9.45,53.6,87,75,5.82,light intensity shower rain,0.0,0.0
392,Barreirinhas,BR,2019-11-08 06:38:22,-2.75,-42.83,74.25,91,13,4.16,few clouds,0.0,0.0
393,Touros,BR,2019-11-08 06:38:22,-5.2,-35.46,75.2,83,75,4.7,broken clouds,0.0,0.0
394,Pahalgam,IN,2019-11-08 06:38:22,34.03,75.33,23.7,73,82,3.56,light snow,0.0,0.12
395,Moose Factory,CA,2019-11-08 06:38:23,51.26,-80.61,5.0,77,1,6.93,clear sky,0.0,0.0
396,Letka,BA,2019-11-08 06:38:23,43.74,17.27,48.2,100,75,3.36,mist,0.0,0.0
397,Lac Du Bonnet,CA,2019-11-08 06:38:23,50.25,-96.06,10.09,81,31,5.19,scattered clouds,0.0,0.0
398,Teruel,ES,2019-11-08 06:38:23,40.34,-1.11,42.8,69,14,9.17,few clouds,0.0,0.0
399,Sabha,LY,2019-11-08 06:38:23,27.03,14.43,63.79,42,0,7.99,clear sky,0.0,0.0
400,Rio Cuarto,AR,2019-11-08 06:38:23,-33.13,-64.35,62.6,67,0,5.82,clear sky,0.0,0.0
401,Aklavik,CA,2019-11-08 06:38:03,68.22,-135.01,12.2,72,90,12.75,light snow,0.0,0.0
402,Basco,US,2019-11-08 06:38:24,40.33,-91.2,19.4,85,1,4.7,clear sky,0.0,0.0
403,Tual,ID,2019-11-08 06:38:24,-5.67,132.75,82.98,73,93,4.16,overcast clouds,0.0,0.0
404,Blagoyevo,RU,2019-11-08 06:38:24,63.37,47.92,10.99,95,27,1.41,scattered clouds,0.0,0.0
405,Salalah,OM,2019-11-08 06:38:24,17.01,54.1,84.2,70,20,5.82,few clouds,0.0,0.0
406,Bloemfontein,ZA,2019-11-08 06:38:25,-29.12,26.22,66.2,21,0,11.41,clear sky,0.0,0.0
407,Damietta,EG,2019-11-08 06:38:25,31.42,31.81,73.4,88,0,9.17,clear sky,0.0,0.0
408,Smyrna,US,2019-11-08 06:38:25,35.98,-86.52,39.2,75,90,19.46,overcast clouds,0.0,0.0
409,Deputatskiy,RU,2019-11-08 06:38:25,69.3,139.9,-7.91,92,85,2.84,overcast clouds,0.0,0.0
410,Banda Aceh,ID,2019-11-08 06:38:25,5.56,95.32,84.83,65,97,4.34,light rain,1.0,0.0
411,Ilhabela,BR,2019-11-08 06:38:25,-23.78,-45.36,73.56,87,100,9.06,overcast clouds,0.0,0.0
412,Dhidhdhoo,MV,2019-11-08 06:38:26,6.88,73.1,82.62,74,19,7.85,few clouds,0.0,0.0
413,Dekar,BW,2019-11-08 06:38:26,-21.53,21.93,80.1,33,65,8.86,broken clouds,0.0,0.0
414,Makakilo City,US,2019-11-08 06:38:06,21.35,-158.09,77.0,88,1,6.93,light rain,0.0,0.0
415,Saint Anthony,US,2019-11-08 06:38:26,43.97,-111.68,26.6,73,1,4.7,clear sky,0.0,0.0
416,Sabzevar,IR,2019-11-08 06:38:27,36.21,57.68,60.4,12,0,9.82,clear sky,0.0,0.0
417,Sirjan,IR,2019-11-08 06:38:27,29.44,55.67,62.04,30,19,3.36,few clouds,0.0,0.0
418,Chamouny,MU,2019-11-08 06:38:27,-20.48,57.47,78.8,69,75,14.99,broken clouds,0.0,0.0
419,Walvis Bay,NA,2019-11-08 06:38:27,-22.95,14.51,57.2,82,75,9.17,broken clouds,0.0,0.0
420,Elko,US,2019-11-08 06:38:28,40.83,-115.76,33.8,50,1,4.7,clear sky,0.0,0.0
421,Antofagasta,CL,2019-11-08 06:36:30,-23.65,-70.4,60.8,77,90,4.7,overcast clouds,0.0,0.0
422,Inhuma,BR,2019-11-08 06:38:28,-6.67,-41.71,79.43,55,88,9.08,overcast clouds,0.0,0.0
423,Plymouth,GB,2019-11-08 06:38:28,50.37,-4.14,37.4,100,75,9.66,broken clouds,0.0,0.0
424,Padang,ID,2019-11-08 06:38:29,-0.92,100.36,80.28,66,100,4.79,light rain,0.38,0.0
425,Galle,GN,2019-11-08 06:38:29,10.08,-12.83,70.38,90,0,1.86,clear sky,0.0,0.0
426,Parelhas,BR,2019-11-08 06:38:29,-6.69,-36.66,67.96,86,26,17.78,scattered clouds,0.0,0.0
427,Cockburn Town,TC,2019-11-08 06:38:29,21.46,-71.14,82.22,79,3,16.37,clear sky,0.0,0.0
428,Barcelos,BR,2019-11-08 06:38:30,-0.97,-62.93,77.76,70,90,1.57,overcast clouds,0.0,0.0
429,Valentigney,CH,2019-11-08 06:38:30,47.46,6.83,42.8,93,20,3.36,few clouds,0.0,0.0
430,Beloha,MG,2019-11-08 06:38:30,-25.17,45.06,91.74,24,0,6.38,clear sky,0.0,0.0
431,Kahului,US,2019-11-08 06:38:11,20.89,-156.47,77.0,88,75,12.75,heavy intensity rain,0.0,0.0
432,Ayorou,NE,2019-11-08 06:38:30,14.73,0.92,81.97,22,5,7.05,clear sky,0.0,0.0
433,Tommot,RU,2019-11-08 06:38:31,58.97,126.27,-1.47,90,45,4.21,scattered clouds,0.0,0.0
434,Jorochito,BO,2019-11-08 06:38:31,-18.06,-63.43,71.6,100,75,9.17,broken clouds,0.0,0.0
435,Mont-Joli,CA,2019-11-08 06:38:31,48.58,-68.19,28.4,74,75,10.29,broken clouds,0.0,0.0
436,Lensk,RU,2019-11-08 06:38:31,60.71,114.91,7.39,82,47,3.94,scattered clouds,0.0,0.0
437,Bath,GB,2019-11-08 06:37:23,51.38,-2.36,44.6,100,90,9.17,light intensity drizzle,0.0,0.0
438,Rovaniemi,FI,2019-11-08 06:35:42,66.5,25.72,3.2,84,82,3.36,broken clouds,0.0,0.0
439,Polyarnyy,RU,2019-11-08 06:38:32,69.2,33.45,6.8,84,75,2.24,light shower snow,0.0,0.0
440,Son La,VN,2019-11-08 06:38:32,21.32,103.9,76.39,56,60,3.4,broken clouds,0.0,0.0
441,Cody,US,2019-11-08 06:38:32,44.53,-109.06,30.2,85,1,4.7,clear sky,0.0,0.0
442,Chapais,CA,2019-11-08 06:38:32,49.78,-74.86,19.4,92,90,3.36,light snow,0.0,0.0
443,Isla Mujeres,MX,2019-11-08 06:35:58,21.23,-86.73,75.2,100,20,4.7,few clouds,0.0,0.0
444,Vasai,IN,2019-11-08 06:38:33,22.43,69.93,82.99,38,0,17.07,clear sky,0.0,0.0
445,Lavrentiya,RU,2019-11-08 06:38:33,65.58,-170.99,27.61,78,0,17.67,clear sky,0.0,0.0
446,Bandiagara,ML,2019-11-08 06:38:33,14.35,-3.61,71.6,78,66,3.18,broken clouds,0.0,0.0
447,Quba,AZ,2019-11-08 06:38:33,41.36,48.51,58.37,35,0,1.54,clear sky,0.0,0.0
448,Lobito,AO,2019-11-08 06:38:34,-12.35,13.55,78.8,88,75,2.39,broken clouds,0.0,0.0
449,Esperance,AU,2019-11-08 06:38:34,-33.86,121.89,69.8,52,40,10.29,scattered clouds,0.0,0.0
450,Celestun,MX,2019-11-08 06:38:34,20.87,-90.4,80.73,81,45,15.03,light rain,0.69,0.0
451,Floresti,MD,2019-11-08 06:38:34,47.89,28.3,50.07,80,91,3.87,overcast clouds,0.0,0.0
452,Chinhoyi,ZW,2019-11-08 06:38:35,-17.36,30.19,83.97,33,38,14.34,scattered clouds,0.0,0.0
453,Zachary,US,2019-11-08 06:38:35,30.65,-91.16,69.8,88,75,13.87,light rain,0.0,0.0
454,Lubbock,US,2019-11-08 06:38:35,33.58,-101.86,33.8,86,90,6.93,overcast clouds,0.0,0.0
455,Nizwa,OM,2019-11-08 06:38:35,22.93,57.53,73.33,48,57,4.56,broken clouds,0.0,0.0
456,Umm Kaddadah,SD,2019-11-08 06:38:35,13.6,26.69,77.7,14,0,16.37,clear sky,0.0,0.0
457,Kletskaya,RU,2019-11-08 06:38:35,49.31,43.06,57.6,63,100,12.91,overcast clouds,0.0,0.0
458,Alofi,NU,2019-11-08 06:38:36,-19.06,-169.92,75.2,88,29,4.7,light rain,0.25,0.0
459,Ouro Preto Do Oeste,BR,2019-11-08 06:38:36,-10.75,-62.22,72.82,86,99,2.24,overcast clouds,0.0,0.0
460,Mao,DO,2019-11-08 06:38:36,19.55,-71.08,73.4,100,40,4.7,scattered clouds,0.0,0.0
461,Lang Son,VN,2019-11-08 06:35:39,21.83,106.73,75.0,48,81,6.8,broken clouds,0.0,0.0
462,Thinadhoo,MV,2019-11-08 06:38:37,0.53,72.93,82.49,72,90,9.48,overcast clouds,0.0,0.0
463,Laguna,BZ,2019-11-08 06:38:37,16.17,-88.94,75.2,100,90,2.24,thunderstorm,0.0,0.0
464,Mollendo,PE,2019-11-08 06:38:37,-17.03,-72.02,58.86,90,97,4.72,overcast clouds,0.0,0.0
465,Lafayette,US,2019-11-08 06:38:06,30.22,-92.02,64.4,82,90,9.17,overcast clouds,0.0,0.0
466,Kolondieba,ML,2019-11-08 06:38:38,11.09,-6.89,74.89,72,51,3.76,broken clouds,0.0,0.0
467,Prince Rupert,CA,2019-11-08 06:38:38,54.32,-130.32,51.8,93,90,13.87,light rain,0.0,0.0
468,Aksu,KZ,2019-11-08 06:38:38,52.04,76.93,37.4,69,90,17.9,light intensity shower rain,0.0,0.0
469,Ahuimanu,US,2019-11-08 06:38:38,21.44,-157.84,77.0,83,90,3.36,light rain,0.0,0.0
470,Plettenberg Bay,ZA,2019-11-08 06:38:39,-34.05,23.37,63.57,61,77,4.5,broken clouds,0.0,0.0
471,Boa Vista,BR,2019-11-08 06:38:39,2.82,-60.67,80.6,74,21,5.82,light rain,0.75,0.0
472,Kiruna,SE,2019-11-08 06:38:39,67.86,20.23,-0.41,91,94,2.24,light snow,0.0,0.0
473,Avera,US,2019-11-08 06:38:39,33.19,-82.53,60.8,100,90,9.31,moderate rain,0.0,0.0
474,Mabaruma,GY,2019-11-08 06:38:39,8.2,-59.78,74.05,98,100,1.36,overcast clouds,0.0,0.0
475,Marmaris,TR,2019-11-08 06:38:40,36.85,28.27,66.2,87,1,4.7,clear sky,0.0,0.0
476,Trelew,AR,2019-11-08 06:38:40,-43.25,-65.31,50.65,33,42,10.11,scattered clouds,0.0,0.0
477,Emerald,AU,2019-11-08 06:38:40,-23.53,148.16,98.6,7,0,17.22,clear sky,0.0,0.0
478,Minab,IR,2019-11-08 06:38:40,27.15,57.07,86.0,37,0,6.93,clear sky,0.0,0.0
479,Omboue,GA,2019-11-08 06:38:40,-1.57,9.26,75.97,93,100,2.51,overcast clouds,0.0,0.0
480,Tall Kayf,TR,2019-11-08 06:38:41,37.08,41.07,62.6,45,0,3.36,clear sky,0.0,0.0
481,Antalaha,MG,2019-11-08 06:38:41,-14.9,50.28,78.76,81,100,12.68,light rain,2.81,0.0
482,Altamira,BR,2019-11-08 06:38:41,-3.2,-52.21,74.39,90,31,1.45,scattered clouds,0.0,0.0
483,Kokkarion,GR,2019-11-08 06:38:41,37.78,26.89,68.0,72,10,9.84,clear sky,0.0,0.0
484,Omsukchan,RU,2019-11-08 06:38:41,62.53,155.8,9.0,97,48,2.62,scattered clouds,0.0,0.0
485,Sao Joao Da Barra,BR,2019-11-08 06:35:47,-21.64,-41.05,74.1,90,53,3.78,light rain,0.13,0.0
486,Savantvadi,IN,2019-11-08 06:38:42,15.9,73.82,84.2,70,40,6.93,scattered clouds,0.0,0.0
487,Bilibino,RU,2019-11-08 06:38:42,68.06,166.44,11.43,73,100,2.55,overcast clouds,0.0,0.0
488,Brownsville,US,2019-11-08 06:38:42,25.91,-97.49,75.2,83,90,12.75,light rain,0.0,0.0
489,Cartagena,ES,2019-11-08 06:38:42,37.63,-1.0,57.2,47,28,12.75,scattered clouds,0.0,0.0
490,Nouakchott,MR,2019-11-08 06:38:42,18.08,-15.98,64.4,72,69,11.41,broken clouds,0.0,0.0
491,Baghdad,IQ,2019-11-08 06:36:41,33.3,44.38,64.4,48,0,6.93,clear sky,0.0,0.0
492,Tolon,GH,2019-11-08 06:38:43,9.43,-1.07,77.09,72,13,4.52,few clouds,0.0,0.0
493,Schonebeck,DE,2019-11-08 06:38:43,51.98,7.5,39.2,93,1,1.12,clear sky,0.0,0.0
494,Nuuk,GL,2019-11-08 06:38:43,64.17,-51.74,39.2,35,100,17.22,overcast clouds,0.0,0.0
495,Akdepe,TM,2019-11-08 06:38:43,42.05,59.39,53.6,43,0,2.24,clear sky,0.0,0.0
496,Wajid,SO,2019-11-08 06:38:44,3.81,43.25,80.08,70,93,11.3,overcast clouds,0.0,0.0
497,Upata,VE,2019-11-08 06:38:44,8.02,-62.41,70.2,97,91,1.68,overcast clouds,0.0,0.0
498,Chekhov,RU,2019-11-08 06:38:44,55.14,37.45,39.2,100,90,6.71,mist,0.0,0.0
499,Pringsewu,ID,2019-11-08 06:38:44,-5.36,104.98,89.82,42,4,7.96,clear sky,0.0,0.0
500,Anloga,GH,2019-11-08 06:38:44,5.79,0.9,77.0,94,20,2.24,few clouds,0.0,0.0
501,Manadhoo,MV,2019-11-08 06:38:45,5.77,73.38,82.04,79,56,8.52,broken clouds,0.0,0.0
502,Mookane,BW,2019-11-08 06:38:45,-23.68,26.66,86.58,15,4,7.34,clear sky,0.0,0.0
503,Doha,QA,2019-11-08 06:36:41,25.29,51.53,82.4,58,43,6.93,scattered clouds,0.0,0.0
504,Poso,ID,2019-11-08 06:38:06,-1.4,120.75,77.72,64,71,3.42,broken clouds,0.0,0.0
505,Broken Hill,AU,2019-11-08 06:38:45,-31.97,141.45,66.2,27,40,26.4,scattered clouds,0.0,0.0
506,South Yarmouth,US,2019-11-08 06:38:46,41.67,-70.18,48.2,93,90,4.7,light rain,0.0,0.0
507,Kloulklubed,PW,2019-11-08 06:38:46,7.04,134.26,77.0,88,90,6.93,shower rain,0.0,0.0
508,Ca Mau,VN,2019-11-08 06:37:08,9.18,105.15,84.7,77,91,6.08,moderate rain,5.31,0.0
